{
  "id": "AZjc6InA",
  "meta": {
    "fields": [{"name":"EMS_ID","type":"string","format":"default","title":"EMS ID","description":"Unique identifier for air quality monitoring stations/air pollution monitoring stations"},{"name":"LATITUDE","type":"number","format":"default","title":"Latitude","description":"Latitude of the air monitoring station"},{"name":"LONGITUDE","type":"number","format":"default","title":"Longitude","description":"Longitude of the air monitoring station"},{"name":"LOCATION","type":"string","format":"default","title":"Location","description":"Location or address of the air monitoring station"},{"name":"CITY","type":"string","format":"default","title":"City","description":"City where the air monitoring station is located"},{"name":"CATEGORY","type":"string","format":"default","title":"Category","description":"Whether the station is operational or not"},{"name":"STATION_ENVIRONMENT","type":"string","format":"default","title":"Station Environment","description":"Zoning (residential/commercial) of the air monitoring station"},{"name":"STATION_OWNER","type":"string","format":"default","title":"Station Owner","description":"Ministry or city who owns the station"}],
    "missingValues": [
      ""
    ]
  },
  "samples": [{"EMS_ID": "0110000", "LATITUDE": "48.4244", "LONGITUDE": "-123.3597", "LOCATION": "1106 Cook Street", "CITY": "Victoria", "CATEGORY": "NON OPERATIONAL", "STATION_ENVIRONMENT": "Residential", "STATION_OWNER": "MOE BC"}, {"EMS_ID": "0110030", "LATITUDE": "48.4239", "LONGITUDE": "-123.3553", "LOCATION": "1250 Quadra Street", "CITY": "Victoria", "CATEGORY": "NON OPERATIONAL", "STATION_ENVIRONMENT": "Residential", "STATION_OWNER": "Shared - MOE & NAPS"}, {"EMS_ID": "0110031", "LATITUDE": "48.4300", "LONGITUDE": "-123.4686", "LOCATION": "2005 Sooke Road", "CITY": "Victoria", "CATEGORY": "NON OPERATIONAL", "STATION_ENVIRONMENT": "Residential", "STATION_OWNER": "Shared - MOE & University"}, {"EMS_ID": "0110101", "LATITUDE": "50.4250", "LONGITUDE": "-127.4792", "LOCATION": "1090 Marine Drive", "CITY": "Port Alice", "CATEGORY": "NON OPERATIONAL", "STATION_ENVIRONMENT": "Commercial", "STATION_OWNER": "MOE BC"}, {"EMS_ID": "0110203", "LATITUDE": "49.6914", "LONGITUDE": "-126.1178", "LOCATION": "At the pumphouse", "CITY": "Gold River", "CATEGORY": "NON OPERATIONAL", "STATION_ENVIRONMENT": "Industrial", "STATION_OWNER": "Permittee Station"}, {"EMS_ID": "0110258", "LATITUDE": "49.2617", "LONGITUDE": "-124.8244", "LOCATION": "5279 River Road", "CITY": "Port Alberni", "CATEGORY": "NON OPERATIONAL", "STATION_ENVIRONMENT": "Residential", "STATION_OWNER": "MOE BC"}, {"EMS_ID": "0110501", "LATITUDE": "50.3892", "LONGITUDE": "-127.4553", "LOCATION": "N/A", "CITY": "Port Alice", "CATEGORY": "NON OPERATIONAL", "STATION_ENVIRONMENT": "Industrial", "STATION_OWNER": "Permittee Station"}, {"EMS_ID": "0220204", "LATITUDE": "49.866905", "LONGITUDE": "-124.521819", "LOCATION": "Wildlife Sanctuary", "CITY": "Powell River", "CATEGORY": "OPERATIONAL", "STATION_ENVIRONMENT": "Forest", "STATION_OWNER": "Permittee Station"}, {"EMS_ID": "0220205", "LATITUDE": "49.886894", "LONGITUDE": "-124.558104", "LOCATION": "6105 Lund Street", "CITY": "Powell River", "CATEGORY": "OPERATIONAL", "STATION_ENVIRONMENT": "Commercial", "STATION_OWNER": "Permittee Station"}, {"EMS_ID": "0220206", "LATITUDE": "49.8736", "LONGITUDE": "-124.5458", "LOCATION": "Hospital", "CITY": "Powell River", "CATEGORY": "NON OPERATIONAL", "STATION_ENVIRONMENT": "Residential", "STATION_OWNER": "Permittee Station"}, {"EMS_ID": "0250009", "LATITUDE": "49.096218", "LONGITUDE": "-117.697828", "LOCATION": "1875 Columbia Avenue", "CITY": "Trail", "CATEGORY": "OPERATIONAL", "STATION_ENVIRONMENT": "Residential", "STATION_OWNER": "MOE BC"}, {"EMS_ID": "0260010", "LATITUDE": "49.0953", "LONGITUDE": "-117.6508", "LOCATION": "WKP & Light Building", "CITY": "Trail", "CATEGORY": "NON OPERATIONAL", "STATION_ENVIRONMENT": "Commercial", "STATION_OWNER": "Permittee Station"}, {"EMS_ID": "0260011", "LATITUDE": "49.0952", "LONGITUDE": "-117.7469", "LOCATION": "395 Schofield Highway", "CITY": "Warfield", "CATEGORY": "OPERATIONAL", "STATION_ENVIRONMENT": "N/A", "STATION_OWNER": "MOE BC"}, {"EMS_ID": "0260012", "LATITUDE": "49.04640500", "LONGITUDE": "-117.60711000", "LOCATION": "Highway 22A", "CITY": "Trail", "CATEGORY": "OPERATIONAL", "STATION_ENVIRONMENT": "N/A", "STATION_OWNER": "Permittee Station"}, {"EMS_ID": "0260021", "LATITUDE": "49.3144", "LONGITUDE": "-117.6605", "LOCATION": "709 10th Street", "CITY": "Castlegar", "CATEGORY": "OPERATIONAL", "STATION_ENVIRONMENT": "Residential", "STATION_OWNER": "Permittee Station"}, {"EMS_ID": "0260022", "LATITUDE": "49.1331", "LONGITUDE": "-117.7456", "LOCATION": "Willow End Road", "CITY": "Trail", "CATEGORY": "NON OPERATIONAL", "STATION_ENVIRONMENT": "Industrial", "STATION_OWNER": "Permittee Station"}, {"EMS_ID": "0260023", "LATITUDE": "49.1031", "LONGITUDE": "-117.6833", "LOCATION": "1200 Hospital Bench", "CITY": "Trail", "CATEGORY": "NON OPERATIONAL", "STATION_ENVIRONMENT": "Residential", "STATION_OWNER": "Permittee Station"}, {"EMS_ID": "0260026", "LATITUDE": "49.0967", "LONGITUDE": "-117.6686", "LOCATION": "3370 Highway Drive", "CITY": "Trail", "CATEGORY": "NON OPERATIONAL", "STATION_ENVIRONMENT": "Commercial", "STATION_OWNER": "Permittee Station"}, {"EMS_ID": "0310081", "LATITUDE": "49.0306", "LONGITUDE": "-122.3761", "LOCATION": "2nd Avenue", "CITY": "Abbotsford", "CATEGORY": "NON OPERATIONAL", "STATION_ENVIRONMENT": "Commercial", "STATION_OWNER": "Shared - MOE & GVRD"}, {"EMS_ID": "0310162", "LATITUDE": "49.2808", "LONGITUDE": "-122.8492", "LOCATION": "Moody Street and Esplanade", "CITY": "Port Moody", "CATEGORY": "METRO VANCOUVER", "STATION_ENVIRONMENT": "Residential", "STATION_OWNER": "Metro Vancouver"}, {"EMS_ID": "0310167", "LATITUDE": "49.3111", "LONGITUDE": "-122.8583", "LOCATION": "Elementary Road", "CITY": "Anmore", "CATEGORY": "METRO VANCOUVER NON OPERATIONAL", "STATION_ENVIRONMENT": "Residential", "STATION_OWNER": "Metro Vancouver"}, {"EMS_ID": "0310169", "LATITUDE": "49.2847", "LONGITUDE": "-122.9017", "LOCATION": "475 Guildford Way", "CITY": "Port Moody", "CATEGORY": "METRO VANCOUVER NON OPERATIONAL", "STATION_ENVIRONMENT": "Residential", "STATION_OWNER": "Metro Vancouver"}, {"EMS_ID": "0310172", "LATITUDE": "49.7063", "LONGITUDE": "-123.1544", "LOCATION": "38075 2nd Avenue", "CITY": "Squamish", "CATEGORY": "NON OPERATIONAL", "STATION_ENVIRONMENT": "Residential; Shaw; stn closed 2016-02-24", "STATION_OWNER": "Shared - MOE & NAPS"}, {"EMS_ID": "0310173", "LATITUDE": "49.1558", "LONGITUDE": "-121.9436", "LOCATION": "Chilliwack Airport", "CITY": "Chilliwack", "CATEGORY": "NON OPERATIONAL", "STATION_ENVIRONMENT": "Commercial", "STATION_OWNER": "Shared - MOE & GVRD"}, {"EMS_ID": "0310174", "LATITUDE": "49.2822", "LONGITUDE": "-123.1219", "LOCATION": "Robson and Hornby", "CITY": "Vancouver", "CATEGORY": "METRO VANCOUVER", "STATION_ENVIRONMENT": "Commercial", "STATION_OWNER": "Metro Vancouver"}, {"EMS_ID": "0310175", "LATITUDE": "49.2617", "LONGITUDE": "-123.1633", "LOCATION": "2550 West 10th Avenue", "CITY": "Vancouver", "CATEGORY": "METRO VANCOUVER NON OPERATIONAL", "STATION_ENVIRONMENT": "Residential", "STATION_OWNER": "Metro Vancouver"}, {"EMS_ID": "0310176", "LATITUDE": "49.2097", "LONGITUDE": "-123.1139", "LOCATION": "250W 70th Avenue", "CITY": "Vancouver", "CATEGORY": "METRO VANCOUVER NON OPERATIONAL", "STATION_ENVIRONMENT": "Residential", "STATION_OWNER": "Metro Vancouver"}, {"EMS_ID": "0310177", "LATITUDE": "49.2794", "LONGITUDE": "-122.9711", "LOCATION": "6400 East Hastings", "CITY": "Burnaby", "CATEGORY": "METRO VANCOUVER", "STATION_ENVIRONMENT": "Residential", "STATION_OWNER": "Metro Vancouver"}, {"EMS_ID": "0310178", "LATITUDE": "49.2833", "LONGITUDE": "-123.0208", "LOCATION": "Pandora Street and Alpha Avenue", "CITY": "Burnaby", "CATEGORY": "METRO VANCOUVER NON OPERATIONAL", "STATION_ENVIRONMENT": "Residential", "STATION_OWNER": "Metro Vancouver"}, {"EMS_ID": "0310179", "LATITUDE": "49.3017", "LONGITUDE": "-123.0203", "LOCATION": "75 Riverside Drive", "CITY": "North Vancouver", "CATEGORY": "METRO VANCOUVER", "STATION_ENVIRONMENT": "Commercial", "STATION_OWNER": "Metro Vancouver"}, {"EMS_ID": "0310180", "LATITUDE": "49.3181", "LONGITUDE": "-123.1347", "LOCATION": "Welsh Road", "CITY": "West Vancouver", "CATEGORY": "METRO VANCOUVER NON OPERATIONAL", "STATION_ENVIRONMENT": "Commercial", "STATION_OWNER": "Metro Vancouver"}, {"EMS_ID": "0440401", "LATITUDE": "49.7522", "LONGITUDE": "-115.9850", "LOCATION": "Lot 3700", "CITY": "Kimberely", "CATEGORY": "NON OPERATIONAL", "STATION_ENVIRONMENT": "Rural", "STATION_OWNER": "Permittee Station"}, {"EMS_ID": "0440402", "LATITUDE": "49.7147", "LONGITUDE": "-115.9967", "LOCATION": "N/A", "CITY": "Kimberely", "CATEGORY": "NON OPERATIONAL", "STATION_ENVIRONMENT": "Industrial", "STATION_OWNER": "Permittee Station"}, {"EMS_ID": "0440403", "LATITUDE": "49.3427", "LONGITUDE": "-117.8297", "LOCATION": "5220 Broadwater Road", "CITY": "Castlegar", "CATEGORY": "OPERATIONAL", "STATION_ENVIRONMENT": "Commercial", "STATION_OWNER": "Permittee Station"}, {"EMS_ID": "0450232", "LATITUDE": "53.8906", "LONGITUDE": "-122.7614", "LOCATION": "311 Wilson Crescent", "CITY": "Prince George", "CATEGORY": "NON OPERATIONAL", "STATION_ENVIRONMENT": "Residential", "STATION_OWNER": "Shared - MOE & Permittee"}, {"EMS_ID": "0450270", "LATITUDE": "53.8592", "LONGITUDE": "-122.7633", "LOCATION": "7005 Gladstone Drive", "CITY": "Prince George", "CATEGORY": "NON OPERATIONAL", "STATION_ENVIRONMENT": "Residential; Shaw", "STATION_OWNER": "Shared - MOE & Permittee"}, {"EMS_ID": "0450307", "LATITUDE": "53.906819", "LONGITUDE": "-122.79525", "LOCATION": "4051 18th Avenue", "CITY": "Prince George", "CATEGORY": "MOBILE", "STATION_ENVIRONMENT": "In the corner of the BC Parks Compound", "STATION_OWNER": "MOE BC"}, {"EMS_ID": "0450307-0", "LATITUDE": "53.91472", "LONGITUDE": "-122.74194", "LOCATION": "1011 4th Avenue", "CITY": "Prince George", "CATEGORY": "OPERATIONAL", "STATION_ENVIRONMENT": "Commercial; Shaw; NAPS 100202", "STATION_OWNER": "Shared - MOE & NAPS"}, {"EMS_ID": "0450322", "LATITUDE": "53.908018", "LONGITUDE": "-122.713337", "LOCATION": "775 E Highway 16", "CITY": "Prince George", "CATEGORY": "OPERATIONAL", "STATION_ENVIRONMENT": "Commercial", "STATION_OWNER": "Shared - MOE & Permittee"}, {"EMS_ID": "0450324", "LATITUDE": "53.9156", "LONGITUDE": "-122.7958", "LOCATION": "4131 Rainbow Drive", "CITY": "Prince George", "CATEGORY": "OPERATIONAL", "STATION_ENVIRONMENT": "Residential; Shaw", "STATION_OWNER": "Shared - MOE & Permittee"}, {"EMS_ID": "0450325", "LATITUDE": "53.9339", "LONGITUDE": "-122.6822", "LOCATION": "1895 Foreman Road", "CITY": "Prince George", "CATEGORY": "NON OPERATIONAL", "STATION_ENVIRONMENT": "Industrial", "STATION_OWNER": "Shared - MOE & Permittee"}, {"EMS_ID": "0451307", "LATITUDE": "53.9147", "LONGITUDE": "-122.7419", "LOCATION": "1011 4th Avenue", "CITY": "Prince George", "CATEGORY": "NON OPERATIONAL", "STATION_ENVIRONMENT": "N/A", "STATION_OWNER": "MOE BC"}, {"EMS_ID": "0500869", "LATITUDE": "49.4847", "LONGITUDE": "-119.5833", "LOCATION": "Carmi School", "CITY": "Penticton", "CATEGORY": "NON OPERATIONAL", "STATION_ENVIRONMENT": "Residential", "STATION_OWNER": "Shared - MOE & NAPS"}, {"EMS_ID": "0500886", "LATITUDE": "49.862336", "LONGITUDE": "-119.477367", "LOCATION": "3333 College Way", "CITY": "Kelowna", "CATEGORY": "OPERATIONAL", "STATION_ENVIRONMENT": "Commercial; NAPS 100701", "STATION_OWNER": "Shared - MOE & NAPS"}, {"EMS_ID": "0550501", "LATITUDE": "53.0053", "LONGITUDE": "-122.4972", "LOCATION": "Finning Road", "CITY": "Quesnel", "CATEGORY": "NON OPERATIONAL", "STATION_ENVIRONMENT": "Industrial", "STATION_OWNER": "Permittee Station"}, {"EMS_ID": "0550502", "LATITUDE": "52.14428", "LONGITUDE": "-122.150391", "LOCATION": "1045 Western Avenue", "CITY": "Williams Lake", "CATEGORY": "OPERATIONAL", "STATION_ENVIRONMENT": "Residential; Telus; NAPS 102701", "STATION_OWNER": "MOE BC"}, {"EMS_ID": "0605008", "LATITUDE": "50.67477", "LONGITUDE": "-120.334016", "LOCATION": "317 Seymour Street", "CITY": "Kamloops", "CATEGORY": "OPERATIONAL", "STATION_ENVIRONMENT": "Commercial; Shaw; NAPS 100401", "STATION_OWNER": "Shared - MOE & NAPS"}, {"EMS_ID": "0605020", "LATITUDE": "52.1161", "LONGITUDE": "-122.1325", "LOCATION": "225 Hodson Road", "CITY": "Williams Lake", "CATEGORY": "NON OPERATIONAL", "STATION_ENVIRONMENT": "Residential", "STATION_OWNER": "MOE BC"}, {"EMS_ID": "0605040", "LATITUDE": "50.1128", "LONGITUDE": "-121.7889", "LOCATION": "2185 Voght Street", "CITY": "Merritt", "CATEGORY": "NON OPERATIONAL", "STATION_ENVIRONMENT": "Residential", "STATION_OWNER": "MOE BC"}, {"EMS_ID": "0660601", "LATITUDE": "54.0542", "LONGITUDE": "-128.6722", "LOCATION": "803 Columbia Street", "CITY": "Kitimat", "CATEGORY": "NON OPERATIONAL", "STATION_ENVIRONMENT": "Residential", "STATION_OWNER": "Permittee Station"}, {"EMS_ID": "0660602", "LATITUDE": "54.0606", "LONGITUDE": "-128.6867", "LOCATION": "9th Avenue", "CITY": "Kitimat", "CATEGORY": "NON OPERATIONAL", "STATION_ENVIRONMENT": "Commercial", "STATION_OWNER": "Permittee Station"}, {"EMS_ID": "0660606", "LATITUDE": "54.2244", "LONGITUDE": "-130.2833", "LOCATION": "633 Sunset", "CITY": "Prince Rupert", "CATEGORY": "NON OPERATIONAL", "STATION_ENVIRONMENT": "Residential", "STATION_OWNER": "Permittee Station"}, {"EMS_ID": "0660607", "LATITUDE": "54.2967", "LONGITUDE": "-130.335", "LOCATION": "1700 Sloan Avenue", "CITY": "Prince Rupert", "CATEGORY": "NON OPERATIONAL", "STATION_ENVIRONMENT": "Residential", "STATION_OWNER": "Permittee Station"}, {"EMS_ID": "0770701", "LATITUDE": "55.6778", "LONGITUDE": "-121.6250", "LOCATION": "Airport", "CITY": "Chetwynd", "CATEGORY": "NON OPERATIONAL", "STATION_ENVIRONMENT": "Commercial", "STATION_OWNER": "None"}, {"EMS_ID": "0770702", "LATITUDE": "55.6222", "LONGITUDE": "-121.9167", "LOCATION": "Hasler Flats", "CITY": "Chetwynd", "CATEGORY": "NON OPERATIONAL", "STATION_ENVIRONMENT": "Industrial", "STATION_OWNER": "None"}, {"EMS_ID": "0770703", "LATITUDE": "55.570022", "LONGITUDE": "-121.928814", "LOCATION": "Gas Plant at end of Airstrip", "CITY": "Chetwynd", "CATEGORY": "OPERATIONAL", "STATION_ENVIRONMENT": "Industrial", "STATION_OWNER": "Permittee Station"}, {"EMS_ID": "0770704", "LATITUDE": "58.7419", "LONGITUDE": "-122.6808", "LOCATION": "Muskawa Industrial Area", "CITY": "Fort Nelson", "CATEGORY": "NON OPERATIONAL", "STATION_ENVIRONMENT": "Industrial", "STATION_OWNER": "Permittee Station"}, {"EMS_ID": "0770705", "LATITUDE": "58.8103", "LONGITUDE": "-122.7042", "LOCATION": "Village Site", "CITY": "Fort Nelson", "CATEGORY": "NON OPERATIONAL", "STATION_ENVIRONMENT": "Residential", "STATION_OWNER": "Permittee Station"}, {"EMS_ID": "0770706", "LATITUDE": "58.5883", "LONGITUDE": "-122.6644", "LOCATION": "Jackfish Creek", "CITY": "Fort Nelson", "CATEGORY": "NON OPERATIONAL", "STATION_ENVIRONMENT": "Forest", "STATION_OWNER": "Permittee Station"}, {"EMS_ID": "0770707", "LATITUDE": "56.1667", "LONGITUDE": "-120.6750", "LOCATION": "1.5 miles NE of Plant Site", "CITY": "Taylor", "CATEGORY": "NON OPERATIONAL", "STATION_ENVIRONMENT": "Industrial", "STATION_OWNER": "Permittee Station"}, {"EMS_ID": "0770708", "LATITUDE": "56.150186", "LONGITUDE": "-120.686985", "LOCATION": "McMahon Complex. Alaska Highway", "CITY": "Taylor", "CATEGORY": "OPERATIONAL", "STATION_ENVIRONMENT": "Residential", "STATION_OWNER": "Permittee Station"}, {"EMS_ID": "0770709", "LATITUDE": "55.3363", "LONGITUDE": "-123.0955", "LOCATION": "Worthington Mackenzie", "CITY": "Mackenzie", "CATEGORY": "NON OPERATIONAL", "STATION_ENVIRONMENT": "Industrial", "STATION_OWNER": "Permittee Station"}, {"EMS_ID": "E102292", "LATITUDE": "49.3353", "LONGITUDE": "-117.7278", "LOCATION": "N/A", "CITY": "Castlegar", "CATEGORY": "NON OPERATIONAL", "STATION_ENVIRONMENT": "Industrial", "STATION_OWNER": "Permittee Station"}, {"EMS_ID": "E206169", "LATITUDE": "49.2089", "LONGITUDE": "-122.7063", "LOCATION": "Airport", "CITY": "Pitt Meadows", "CATEGORY": "NON OPERATIONAL", "STATION_ENVIRONMENT": "Commercial", "STATION_OWNER": "Shared - MOE & GVRD"}, {"EMS_ID": "E206243", "LATITUDE": "49.5117", "LONGITUDE": "-115.7569", "LOCATION": "Balment Park", "CITY": "Cranbrook", "CATEGORY": "NON OPERATIONAL", "STATION_ENVIRONMENT": "Residential", "STATION_OWNER": "MOE BC"}, {"EMS_ID": "E206270", "LATITUDE": "49.2797", "LONGITUDE": "-122.9222", "LOCATION": "Ring Road SFU", "CITY": "Burnaby", "CATEGORY": "METRO VANCOUVER", "STATION_ENVIRONMENT": "Residential", "STATION_OWNER": "Metro Vancouver"}, {"EMS_ID": "E206271", "LATITUDE": "49.1328", "LONGITUDE": "-122.6942", "LOCATION": "19000 72nd Avenue", "CITY": "Surrey", "CATEGORY": "METRO VANCOUVER", "STATION_ENVIRONMENT": "Residential", "STATION_OWNER": "Metro Vancouver"}, {"EMS_ID": "E206379", "LATITUDE": "48.8647", "LONGITUDE": "-123.6481", "LOCATION": "Robert Street", "CITY": "Crofton", "CATEGORY": "NON OPERATIONAL", "STATION_ENVIRONMENT": "Residential", "STATION_OWNER": "MOE BC"}, {"EMS_ID": "E206589", "LATITUDE": "54.783308", "LONGITUDE": "-127.177324", "LOCATION": "4020 Broadway Avenue", "CITY": "Smithers", "CATEGORY": "OPERATIONAL", "STATION_ENVIRONMENT": "Residential; Telus; NAPS 102401", "STATION_OWNER": "Shared - MOE & NAPS"}, {"EMS_ID": "E206612", "LATITUDE": "49.1519", "LONGITUDE": "-121.9511", "LOCATION": "Works Yard", "CITY": "Chilliwack", "CATEGORY": "METRO VANCOUVER NON OPERATIONAL", "STATION_ENVIRONMENT": "Commercial", "STATION_OWNER": "Metro Vancouver"}, {"EMS_ID": "E206671", "LATITUDE": "53.9883", "LONGITUDE": "-128.695", "LOCATION": "Highway 37", "CITY": "Kitimat", "CATEGORY": "NON OPERATIONAL", "STATION_ENVIRONMENT": "Industry", "STATION_OWNER": "Shared - MOE & Permittee"}, {"EMS_ID": "E206707", "LATITUDE": "49.0875", "LONGITUDE": "-122.5722", "LOCATION": "Peterson Road", "CITY": "Langley", "CATEGORY": "NON OPERATIONAL", "STATION_ENVIRONMENT": "Residential", "STATION_OWNER": "MOE BC"}, {"EMS_ID": "E206898", "LATITUDE": "50.6975", "LONGITUDE": "-120.3969", "LOCATION": "705 Mayfair St", "CITY": "Kamloops", "CATEGORY": "NON OPERATIONAL", "STATION_ENVIRONMENT": "Commercial", "STATION_OWNER": "Shared - MOE & NAPS"}, {"EMS_ID": "E206986", "LATITUDE": "49.5586", "LONGITUDE": "-123.2325", "LOCATION": "Porteau Cove Provincial Park", "CITY": "Britannia Beach", "CATEGORY": "NON OPERATIONAL", "STATION_ENVIRONMENT": "Forest", "STATION_OWNER": "Permittee Station"}, {"EMS_ID": "E206987", "LATITUDE": "49.4500", "LONGITUDE": "-123.4678", "LOCATION": "Camp Elphinstone", "CITY": "Gibsons", "CATEGORY": "NON OPERATIONAL", "STATION_ENVIRONMENT": "Forest", "STATION_OWNER": "Permittee Station"}, {"EMS_ID": "E207182", "LATITUDE": "54.0325", "LONGITUDE": "-128.7122", "LOCATION": "Substation Road", "CITY": "Kitimat", "CATEGORY": "NON OPERATIONAL", "STATION_ENVIRONMENT": "Industry", "STATION_OWNER": "Shared - MOE & Permittee"}, {"EMS_ID": "E207286", "LATITUDE": "49.5586", "LONGITUDE": "-123.2325", "LOCATION": "N/A", "CITY": "Powell River", "CATEGORY": "NON OPERATIONAL", "STATION_ENVIRONMENT": "Residential", "STATION_OWNER": "MOE BC"}, {"EMS_ID": "E207302", "LATITUDE": "49.3786", "LONGITUDE": "-123.2794", "LOCATION": "Isleview Road", "CITY": "Vancouver", "CATEGORY": "NON OPERATIONAL", "STATION_ENVIRONMENT": "Residential", "STATION_OWNER": "MOE BC"}, {"EMS_ID": "E207417", "LATITUDE": "49.1414", "LONGITUDE": "-123.1083", "LOCATION": "Williams and Aragon Road", "CITY": "Richmond", "CATEGORY": "METRO VANCOUVER", "STATION_ENVIRONMENT": "Residential", "STATION_OWNER": "Metro Vancouver"}, {"EMS_ID": "E207418", "LATITUDE": "49.2153", "LONGITUDE": "-122.9856", "LOCATION": "5455 Rumble Street", "CITY": "Burnaby", "CATEGORY": "METRO VANCOUVER", "STATION_ENVIRONMENT": "Residential", "STATION_OWNER": "Metro Vancouver"}, {"EMS_ID": "E207419", "LATITUDE": "49.1847", "LONGITUDE": "-123.1847", "LOCATION": "16400 Cambie Road", "CITY": "Richmond", "CATEGORY": "METRO VANCOUVER NON OPERATIONAL", "STATION_ENVIRONMENT": "Residential", "STATION_OWNER": "Metro Vancouver"}, {"EMS_ID": "E207420", "LATITUDE": "49.2056", "LONGITUDE": "-122.9519", "LOCATION": "19th Street and 10th Avenue", "CITY": "Burnaby", "CATEGORY": "METRO VANCOUVER NON OPERATIONAL", "STATION_ENVIRONMENT": "Residential", "STATION_OWNER": "Metro Vancouver"}, {"EMS_ID": "E207421", "LATITUDE": "49.2800", "LONGITUDE": "-122.7342", "LOCATION": "Hamilton and Paisley", "CITY": "Port Coquitlam", "CATEGORY": "METRO VANCOUVER NON OPERATIONAL", "STATION_ENVIRONMENT": "Residential", "STATION_OWNER": "Metro Vancouver"}, {"EMS_ID": "E207723", "LATITUDE": "49.1583", "LONGITUDE": "-122.9017", "LOCATION": "8544 116 Street", "CITY": "Delta", "CATEGORY": "METRO VANCOUVER", "STATION_ENVIRONMENT": "Residential", "STATION_OWNER": "Metro Vancouver"}, {"EMS_ID": "E207879", "LATITUDE": "49.337031", "LONGITUDE": "-117.698275", "LOCATION": "3113 Charleston Road", "CITY": "Robson", "CATEGORY": "OPERATIONAL", "STATION_ENVIRONMENT": "Residential", "STATION_OWNER": "Permittee Station"}, {"EMS_ID": "E207914", "LATITUDE": "49.9547", "LONGITUDE": "-115.7594", "LOCATION": "Johnson Lake Road Southsite Road", "CITY": "Cranbrook", "CATEGORY": "NON OPERATIONAL", "STATION_ENVIRONMENT": "Industrial", "STATION_OWNER": "MOE BC"}, {"EMS_ID": "E208096", "LATITUDE": "52.981686", "LONGITUDE": "-122.493227", "LOCATION": "585 Callanan Street", "CITY": "Quesnel", "CATEGORY": "OPERATIONAL", "STATION_ENVIRONMENT": "Residential; Shaw; NAPS 101701", "STATION_OWNER": "Shared - MOE & NAPS"}, {"EMS_ID": "E209177", "LATITUDE": "49.3239", "LONGITUDE": "-123.0836", "LOCATION": "16th Street and Jones Avenue", "CITY": "North Vancouver", "CATEGORY": "METRO VANCOUVER", "STATION_ENVIRONMENT": "Residential", "STATION_OWNER": "Metro Vancouver"}, {"EMS_ID": "E209178", "LATITUDE": "49.0956", "LONGITUDE": "-122.5669", "LOCATION": "23752 52nd Avenue", "CITY": "Langley", "CATEGORY": "METRO VANCOUVER", "STATION_ENVIRONMENT": "Rural", "STATION_OWNER": "Metro Vancouver"}, {"EMS_ID": "E209179", "LATITUDE": "53.90339", "LONGITUDE": "-122.703963", "LOCATION": "Gunn Road", "CITY": "Prince George", "CATEGORY": "OPERATIONAL", "STATION_ENVIRONMENT": "Industrial", "STATION_OWNER": "Shared - MOE & Permittee"}, {"EMS_ID": "E214615", "LATITUDE": "49.3796", "LONGITUDE": "-121.4416", "LOCATION": "3rd Avenue", "CITY": "Hope", "CATEGORY": "NON OPERATIONAL", "STATION_ENVIRONMENT": "Residential", "STATION_OWNER": "MOE BC"}, {"EMS_ID": "E215732", "LATITUDE": "49.3353", "LONGITUDE": "-117.7278", "LOCATION": "N/A", "CITY": "Castlegar", "CATEGORY": "NON OPERATIONAL", "STATION_ENVIRONMENT": "Industrial", "STATION_OWNER": "Permittee Station"}, {"EMS_ID": "E215733", "LATITUDE": "49.3353", "LONGITUDE": "-117.7278", "LOCATION": "N/A", "CITY": "Castlegar", "CATEGORY": "NON OPERATIONAL", "STATION_ENVIRONMENT": "Industrial", "STATION_OWNER": "Permittee Station"}, {"EMS_ID": "E216667", "LATITUDE": "52.9630", "LONGITUDE": "-122.4972", "LOCATION": "950 Mountain Ash Road", "CITY": "Quesnel", "CATEGORY": "NON OPERATIONAL", "STATION_ENVIRONMENT": "Residential", "STATION_OWNER": "Permittee Station"}, {"EMS_ID": "E216670", "LATITUDE": "54.05389", "LONGITUDE": "-128.671436", "LOCATION": "651 Columbia Street", "CITY": "Kitimat", "CATEGORY": "OPERATIONAL", "STATION_ENVIRONMENT": "Residential", "STATION_OWNER": "Permittee Station"}, {"EMS_ID": "E217029", "LATITUDE": "49.0492", "LONGITUDE": "-122.2922", "LOCATION": "South Fraser Highway", "CITY": "Abbotsford", "CATEGORY": "NON OPERATIONAL", "STATION_ENVIRONMENT": "Residential", "STATION_OWNER": "Shared - MOE & GVRD"}, {"EMS_ID": "E217061", "LATITUDE": "49.4117", "LONGITUDE": "-123.5131", "LOCATION": "Firehall Roof", "CITY": "Gibsons", "CATEGORY": "NON OPERATIONAL", "STATION_ENVIRONMENT": "Residential", "STATION_OWNER": "Permittee Station"}, {"EMS_ID": "E217062", "LATITUDE": "49.4003", "LONGITUDE": "-123.5094", "LOCATION": "Townhall Roof", "CITY": "Gibsons", "CATEGORY": "NON OPERATIONAL", "STATION_ENVIRONMENT": "Residential", "STATION_OWNER": "Permittee Station"}, {"EMS_ID": "E220203", "LATITUDE": "49.5100", "LONGITUDE": "-115.7592", "LOCATION": "Adjacent to 1333 14th Avenue S", "CITY": "Cranbrook", "CATEGORY": "NON OPERATIONAL", "STATION_ENVIRONMENT": "Residential", "STATION_OWNER": "MOE BC"}, {"EMS_ID": "E220217", "LATITUDE": "48.874529", "LONGITUDE": "-123.653929", "LOCATION": "8541 Hay Road", "CITY": "Crofton", "CATEGORY": "OPERATIONAL", "STATION_ENVIRONMENT": "Industrial", "STATION_OWNER": "Permittee Station"}]
}
